City_ID,City,Lat,Lng,Max Temp,Humidity,Cloudiness,Wind Speed,Country,Date
0,bethel,41.3712,-73.414,41.31,62,100,9.22,US,1704401376
1,sai kung,22.3822,114.2728,63.18,85,34,8.99,CN,1704401590
2,wuwei,37.9281,102.6414,25.38,39,16,3.06,CN,1704401590
3,ust-tsilma,65.441,52.1498,-7.38,100,97,3.0,RU,1704401590
4,anadyr,64.75,177.4833,7.3,72,0,20.13,RU,1704401591
5,edea,3.8,10.1333,77.31,88,54,1.32,CM,1704401591
6,stanley,54.868,-1.6985,40.71,96,40,2.3,GB,1704401389
7,talnakh,69.4865,88.3972,-12.8,93,100,20.09,RU,1704401592
8,port mathurin,-19.6833,63.4167,82.31,82,73,9.28,MU,1704401592
9,codrington,-38.2667,141.9667,63.46,87,95,12.97,AU,1704401592
10,longyearbyen,78.2186,15.6401,-4.16,65,75,10.36,SJ,1704401592
11,vilyuchinsk,52.9306,158.4028,7.93,75,100,8.14,RU,1704401593
12,lihue,21.9789,-159.3672,76.73,75,0,11.5,US,1704401597
13,cabedelo,-6.9811,-34.8339,84.87,76,11,8.32,BR,1704401598
14,hun,29.1268,15.9477,58.71,39,76,4.18,LY,1704401598
15,avarua,-21.2078,-159.775,80.65,83,20,20.71,CK,1704401598
16,jamestown,42.097,-79.2353,24.55,76,100,12.66,US,1704401393
17,tiksi,71.6872,128.8694,-30.1,99,93,2.89,RU,1704401599
18,badger,64.8,-147.5333,8.47,70,100,11.5,US,1704401599
19,grytviken,-54.2811,-36.5092,44.49,79,89,6.87,GS,1704401599
20,nar'yan-mar,67.6713,53.087,8.11,98,99,5.99,RU,1704401600
21,puerto aysen,-45.4,-72.7,61.0,97,99,5.79,CL,1704401600
22,bilibino,68.0546,166.4372,-21.62,99,100,0.74,RU,1704401600
23,waitangi,-43.9535,-176.5597,62.82,87,100,26.62,NZ,1704401600
24,bodo,67.28,14.405,14.77,57,0,17.27,NO,1704401601
25,mana,5.6592,-53.7767,80.94,76,31,8.61,GF,1704401601
26,ilulissat,69.2167,-51.1,21.22,86,75,11.5,GL,1704401601
27,magdagachi,53.45,125.8,-19.61,99,92,3.87,RU,1704401601
28,dumas,35.8656,-101.9732,35.53,100,100,13.8,US,1704401602
29,hasaki,35.7333,140.8333,30.6,49,8,1.43,JP,1704401602
30,tecuala,22.3986,-105.4569,79.18,49,47,9.8,MX,1704401471
31,punta arenas,-53.15,-70.9167,53.62,87,75,8.05,CL,1704401384
32,sabang,5.8933,95.3214,81.68,78,25,17.6,ID,1704401603
33,choibalsan,48.0667,114.5,2.77,87,70,8.21,MN,1704401603
34,puerto natales,-51.7236,-72.4875,57.65,88,75,5.75,CL,1704401603
35,tharangambadi,11.0319,79.8528,77.86,80,100,9.46,IN,1704401603
36,edinburgh of the seven seas,-37.0676,-12.3116,57.94,70,15,26.62,SH,1704401604
37,riosucio,5.4216,-75.7032,74.01,49,63,1.19,CO,1704401604
38,guatire,10.4762,-66.5427,81.55,65,37,4.97,VE,1704401604
39,isyangulovo,52.1909,52.1909,-4.32,96,100,1.05,RU,1704401605
40,uturoa,-16.7333,-151.4333,80.01,82,100,24.92,PF,1704401605
41,konarka,19.9,86.1167,61.2,69,9,5.61,IN,1704401605
42,port-aux-francais,-49.35,70.2167,40.59,70,42,28.9,TF,1704401605
43,west island,-12.1568,96.8225,80.58,89,75,9.22,CC,1704401606
44,sake,-1.5736,29.045,63.0,93,100,1.12,CD,1704401606
45,adamstown,-25.066,-130.1015,74.61,82,91,14.5,PN,1704401606
46,fort st. john,56.2499,-120.8529,8.49,85,100,6.91,CA,1704401448
47,iskateley,67.6803,53.1512,8.02,98,100,5.99,RU,1704401607
48,lubang,13.8584,120.124,80.44,79,100,23.29,PH,1704401607
49,zhangye,38.9342,100.4517,22.89,47,16,2.1,CN,1704401607
50,rio grande,-32.035,-52.0986,77.11,78,7,18.54,BR,1704401607
51,bandarbeyla,9.4942,50.8122,76.95,62,19,18.61,SO,1704401608
52,margaret river,-33.95,115.0667,54.86,86,13,11.14,AU,1704401608
53,mammoth lakes,37.6485,-118.9721,34.52,37,0,9.22,US,1704401403
54,kingston,17.997,-76.7936,85.15,74,40,14.97,JM,1704401449
55,nova vicosa,-17.8919,-39.3719,76.41,96,95,12.33,BR,1704401609
56,nema,57.5067,50.5011,-4.68,99,85,5.95,RU,1704401609
57,la ronge,55.1001,-105.2842,14.25,79,75,13.8,CA,1704401609
58,afaahiti,-17.75,-149.2833,80.47,82,100,22.93,PF,1704401609
59,ancud,-41.8697,-73.8203,62.82,83,57,9.84,CL,1704401610
60,yaren,-0.5472,166.916,81.52,76,100,6.38,NR,1704401610
61,machico,32.7,-16.7667,68.72,87,40,11.5,PT,1704401610
62,sierra grande,-41.606,-65.3557,80.24,48,97,1.9,AR,1704401611
63,constantia,44.1833,28.65,48.88,83,97,19.26,RO,1704401611
64,ribeira grande,38.5167,-28.7,63.77,88,75,21.99,PT,1704401611
65,pathein,16.7833,94.7333,67.42,86,9,5.46,MM,1704401611
66,valparaiso,-33.0393,-71.6273,70.03,71,75,10.36,CL,1704401516
67,iqaluit,63.7506,-68.5145,1.13,66,40,9.22,CA,1704401612
68,lindi,-10.0,39.7167,74.08,96,100,2.08,TZ,1704401612
69,blackmans bay,-43.0167,147.3167,56.73,79,24,1.01,AU,1704401612
70,petropavlovsk-kamchatsky,53.0452,158.6483,6.46,83,0,11.18,RU,1704401613
71,mount isa,-20.7333,139.5,76.77,83,100,5.75,AU,1704401613
72,lepsy,46.235,78.9456,26.01,66,100,4.21,KZ,1704401613
73,pallasovka,50.05,46.8833,26.29,93,100,8.12,RU,1704401613
74,brookings,44.3114,-96.7984,24.12,92,100,12.66,US,1704401614
75,yellowknife,62.456,-114.3525,-26.72,80,75,6.91,CA,1704401614
76,qamdo,31.1667,97.2333,14.49,59,100,1.88,CN,1704401614
77,tazovsky,67.4667,78.7,-8.21,89,100,16.06,RU,1704401614
78,choyr,46.3611,108.3611,-4.97,84,3,6.2,MN,1704401615
79,papatowai,-46.5619,169.4708,52.75,54,78,11.74,NZ,1704401615
80,colonia,50.9333,6.95,46.74,81,75,8.05,DE,1704401615
81,akobo,7.4344,3.9497,83.75,74,73,6.91,NG,1704401616
82,tionk essil,12.7856,-16.5217,77.05,52,63,6.55,SN,1704401616
83,kayyerkan,69.3786,87.7439,-12.71,75,100,15.75,RU,1704401616
84,hilo,19.7297,-155.09,75.61,94,100,6.91,US,1704401391
85,ruscova,47.7883,24.2808,42.62,91,100,6.4,RO,1704401617
86,guarapari,-20.6667,-40.4975,78.89,97,100,2.75,BR,1704401617
87,fuerte olimpo,-21.0415,-57.8738,103.01,22,17,6.24,PY,1704401617
88,el bauga,18.262,33.9081,66.94,34,47,9.73,SD,1704401618
89,berezhani,49.45,24.9333,41.92,83,100,13.13,UA,1704401618
90,puerto ayora,-0.7393,-90.3518,84.16,92,64,8.01,EC,1704401618
91,daru,-9.0763,143.2092,79.34,87,100,2.06,PG,1704401619
92,el alto,-4.2714,-81.2147,82.06,75,88,16.78,PE,1704401619
93,whitehorse,60.7161,-135.0538,16.57,92,40,16.11,CA,1704401619
94,port lincoln,-34.7333,135.8667,64.36,82,88,15.01,AU,1704401619
95,san luis de la loma,17.2706,-100.8939,83.3,58,8,8.16,MX,1704401620
96,fort bragg,35.139,-79.006,51.94,41,0,11.5,US,1704401620
97,mata-utu,-13.2816,-176.1745,83.41,75,29,11.74,WF,1704401621
98,beledweyne,4.7358,45.2036,79.29,31,11,7.72,SO,1704401621
99,ust'-charyshskaya pristan',52.3934,83.6635,7.38,95,66,5.91,RU,1704401621
100,san giovanni in marignano,43.9342,12.7014,57.61,66,0,10.0,IT,1704401622
101,mathba,22.2855,89.9629,59.68,57,0,5.44,BD,1704401622
102,alofi,-19.0595,-169.9187,84.09,70,75,14.97,NU,1704401622
103,deori khas,23.4,79.0167,59.58,84,48,5.91,IN,1704401628
104,beihai,21.4833,109.1,65.66,88,98,12.28,CN,1704401628
105,lesogorsk,56.0458,99.5136,-28.73,100,96,2.08,RU,1704401628
106,kone,-21.0595,164.8658,83.55,63,0,2.46,NC,1704401629
107,faro,37.0194,-7.9322,55.96,94,0,5.75,PT,1704401629
108,bosobolo,4.1833,19.9,77.74,36,15,1.25,CD,1704401629
109,zelenoborskiy,66.845,32.3622,-11.87,95,31,4.7,RU,1704401629
110,bada,51.392,109.8717,2.97,96,100,5.28,RU,1704401630
111,flying fish cove,-10.4217,105.6791,78.48,88,75,2.3,CX,1704401630
112,namibe,-15.1961,12.1522,72.09,73,66,9.93,AO,1704401630
113,hawaiian paradise park,19.5933,-154.9731,74.03,94,100,6.91,US,1704401630
114,margate,51.3813,1.3862,51.69,91,96,13.0,GB,1704401631
115,albany,42.6001,-73.9662,34.21,53,15,15.01,US,1704401509
116,hermanus,-34.4187,19.2345,68.23,83,65,10.69,ZA,1704401631
117,freeport,40.6576,-73.5832,44.85,55,75,17.27,US,1704401363
118,chilliwack,49.1747,-121.9443,48.78,99,100,1.99,CA,1704401632
119,harper,4.375,-7.7169,79.68,82,90,7.29,LR,1704401632
120,bakanas,44.8081,76.2772,35.85,48,100,13.04,KZ,1704401633
121,middlesboro,36.6084,-83.7166,42.03,52,0,4.61,US,1704401633
122,chala,-7.5833,31.2667,57.33,96,100,2.93,TZ,1704401633
123,invercargill,-46.4,168.35,53.02,71,100,8.01,NZ,1704401634
124,nouna,12.7333,-3.8667,81.36,12,12,7.58,BF,1704401634
125,kadom,54.5592,42.4675,-1.8,97,84,3.31,RU,1704401634
126,ushuaia,-54.8,-68.3,49.66,76,100,11.5,AR,1704401583
127,san julian,21.0167,-102.1667,68.72,21,52,15.26,MX,1704401635
128,arraial do cabo,-22.9661,-42.0278,78.76,83,75,9.22,BR,1704401635
129,crane,31.3974,-102.3501,50.43,63,89,20.67,US,1704401635
130,chul'man,56.8479,124.9104,-17.86,100,96,0.31,RU,1704401635
131,tura,25.5198,90.2201,55.18,73,0,3.02,IN,1704401636
132,qarazhal,48.0078,70.7903,25.81,79,100,16.33,KZ,1704401637
133,isfana,39.8386,69.5306,32.56,62,100,6.55,KG,1704401638
134,haiku-pauwela,20.9219,-156.3051,78.17,61,40,3.44,US,1704401638
135,ulladulla,-35.35,150.4667,64.42,87,93,5.3,AU,1704401638
136,valenca do piaui,-6.4075,-41.7456,83.32,55,22,3.4,BR,1704401639
137,revda,56.801,59.9303,9.48,95,100,3.87,RU,1704401639
138,vytegra,61.0064,36.4481,-22.56,100,27,1.88,RU,1704401639
139,antofagasta,-23.65,-70.4,70.88,70,5,8.9,CL,1704401567
140,vernon,50.2581,-119.2691,42.6,83,82,4.0,CA,1704401640
141,college,64.8569,-147.8028,8.55,69,75,11.5,US,1704401640
142,luderitz,-26.6481,15.1594,65.41,91,34,5.7,NA,1704401640
143,saint-joseph,-21.3667,55.6167,78.1,88,57,2.08,RE,1704401641
144,cockburn town,21.4612,-71.1419,77.85,78,6,4.72,TC,1704401641
145,rawai,7.7797,98.3253,78.91,83,99,17.13,TH,1704401491
146,olyokminsk,60.3736,120.4264,-20.65,93,78,4.18,RU,1704401642
147,minas de marcona,-15.2119,-75.1103,70.65,65,70,12.3,PE,1704401642
148,corner brook,48.9667,-57.9484,30.36,93,100,1.07,CA,1704401642
149,dudinka,69.4058,86.1778,-12.39,95,100,14.0,RU,1704401643
150,el calafate,-50.3408,-72.2768,60.06,60,98,11.9,AR,1704401643
151,el granada,37.5027,-122.4694,61.81,72,0,13.8,US,1704401643
152,barrouallie,13.2333,-61.2667,80.22,74,20,11.5,VC,1704401643
153,atafu village,-8.5421,-172.5159,84.27,66,57,11.99,TK,1704401644
154,nogliki,51.8333,143.1667,-11.65,100,78,4.0,RU,1704401644
155,klyuchi,52.2667,79.1667,18.88,80,99,14.61,RU,1704401644
156,karaj,35.8355,51.0103,43.32,48,0,4.61,IR,1704401644
157,luimneach,52.6647,-8.6231,41.07,97,57,4.74,IE,1704401459
158,fortuna,40.5982,-124.1573,56.66,91,100,7.0,US,1704401645
159,st. john's,47.5649,-52.7093,31.68,94,100,16.11,CA,1704401645
160,weno,7.4515,151.8468,82.35,78,75,9.22,FM,1704401645
161,wailua homesteads,22.0669,-159.378,76.12,80,0,11.5,US,1704401646
162,nouadhibou,20.931,-17.0347,71.58,56,0,11.5,MR,1704401646
163,aasiaat,68.7098,-52.8699,15.75,91,100,8.68,GL,1704401646
164,kruisfontein,-34.0033,24.7314,67.89,90,4,9.91,ZA,1704401646
165,olonkinbyen,70.9221,-8.7187,21.54,63,95,6.26,SJ,1704401647
166,new norfolk,-42.7826,147.0587,57.92,74,48,1.41,AU,1704401647
167,orsa,54.5153,30.4053,9.03,92,100,14.38,BY,1704401647
168,chinchilla,-26.75,150.6333,78.03,81,12,1.99,AU,1704401648
169,lebu,-37.6167,-73.65,63.9,75,28,13.91,CL,1704401648
170,campillos,37.0483,-4.8631,53.67,95,100,3.69,ES,1704401648
171,pangody,65.85,74.4859,-11.24,82,100,14.2,RU,1704401649
172,mount pearl,47.5166,-52.7813,30.85,94,100,16.11,CA,1704401649
173,banda aceh,5.5577,95.3222,78.28,83,73,9.69,ID,1704401649
174,pul-e 'alam,33.9953,69.0227,38.59,50,100,1.32,AF,1704401649
175,petauke,-14.2426,31.3253,66.81,97,97,4.52,ZM,1704401650
176,hohhot,40.8106,111.6522,-1.91,78,0,4.47,CN,1704401639
177,kralendijk,12.15,-68.2667,85.98,70,75,16.11,BQ,1704401651
178,rosarito,32.3333,-117.0333,64.47,54,58,10.74,MX,1704401651
179,qarqaraly,49.4058,75.4742,19.45,67,100,8.99,KZ,1704401651
180,filingue,14.3521,3.3168,75.76,12,2,9.71,NE,1704401652
181,wynyard,-41.0,145.7167,61.59,83,94,2.48,AU,1704401652
182,georgetown,5.4112,100.3354,80.53,86,20,5.01,MY,1704401652
183,yingkou,40.6648,122.2283,15.62,91,5,3.96,CN,1704401653
184,westport,41.1415,-73.3579,43.32,62,100,10.36,US,1704401653
185,nemuro,43.3236,145.575,27.39,75,15,5.73,JP,1704401654
186,alesund,62.4723,6.1549,28.76,57,0,13.8,NO,1704401654
187,saint-georges,12.0564,-61.7485,85.68,74,20,14.97,GD,1704401655
188,sitka,57.0531,-135.33,39.09,81,75,9.22,US,1704401577
189,lerwick,60.1545,-1.1494,41.0,97,100,32.75,GB,1704401655
190,thompson,55.7435,-97.8558,10.56,79,100,11.5,CA,1704401655
191,dedza,-14.3779,34.3332,61.02,93,100,1.52,MW,1704401655
192,labrador city,52.9463,-66.9114,4.91,78,75,0.0,CA,1704401410
193,dunedin,-45.8742,170.5036,54.81,91,71,4.0,NZ,1704401656
194,naze,28.3667,129.4833,52.72,67,9,0.67,JP,1704401656
195,kimbe,-5.5502,150.1429,78.3,89,100,1.57,PG,1704401656
196,kamaishi,39.2667,141.8833,37.94,72,21,5.37,JP,1704401618
197,kapuskasing,49.4169,-82.4331,6.89,78,100,6.91,CA,1704401657
198,herceg novi,42.4531,18.5375,49.08,100,0,1.14,ME,1704401657
199,pariaman,-0.619,100.12,78.85,84,100,2.84,ID,1704401658
200,dubbo,-32.25,148.6167,71.73,64,96,16.11,AU,1704401658
201,ola,59.5833,151.2833,-15.68,89,13,6.93,RU,1704401658
202,grand baie,-20.0182,57.5802,82.87,93,100,8.43,MU,1704401659
203,retreat,38.8245,-85.8533,38.35,53,6,5.77,US,1704401659
204,qaqortoq,60.7167,-46.0333,13.8,90,94,7.9,GL,1704401659
205,cedeira,43.6797,-8.0209,50.38,75,80,13.82,ES,1704401660
206,howrah,22.5892,88.3103,60.8,88,1,0.0,IN,1704401660
207,keflavik,64.0049,-22.5624,34.23,75,0,8.05,IS,1704401660
208,tazacorte,28.629,-17.9293,68.97,95,40,6.91,ES,1704401660
209,greymouth,-42.4667,171.2,57.88,91,100,1.63,NZ,1704401661
210,joshimath,30.5667,79.5667,40.53,23,3,7.45,IN,1704401661
211,akureyri,65.6835,-18.0878,22.93,93,100,2.3,IS,1704401662
212,touros,-5.1989,-35.4608,81.63,78,2,11.12,BR,1704401621
213,bukama,-9.2,25.85,67.64,99,99,2.04,CD,1704401662
214,san andres,12.5847,-81.7006,86.02,66,20,10.36,CO,1704401663
215,sretensk,52.2453,117.7093,-16.02,99,93,1.3,RU,1704401663
216,prado,-17.3411,-39.2208,76.69,97,100,14.5,BR,1704401663
217,xining,36.6167,101.7667,19.78,47,96,1.48,CN,1704401663
218,cabo san lucas,22.8909,-109.9124,76.3,42,20,10.0,MX,1704401429
219,tomakomai,42.6369,141.6033,23.14,86,75,3.44,JP,1704401664
220,brak,27.5496,14.2714,60.13,34,100,7.27,LY,1704401664
221,angaur state,6.906,134.13,83.52,79,90,15.41,PW,1704401664
222,turpan,42.9333,89.1667,27.43,56,13,2.06,CN,1704401665
223,utrik,11.2278,169.8474,80.08,65,100,20.47,MH,1704401665
224,swakopmund,-22.6833,14.5333,67.05,92,23,7.61,NA,1704401665
225,fale old settlement,-9.3852,-171.2468,83.98,68,85,10.8,TK,1704401665
226,okhotsk,59.3833,143.3,-22.67,84,12,7.92,RU,1704401666
227,villa gesell,-37.2639,-56.973,74.05,70,81,18.61,AR,1704401502
228,lazaro cardenas,17.9583,-102.2,81.36,55,21,10.13,MX,1704401666
229,enewetak,11.3474,162.3373,81.16,77,79,18.63,MH,1704401667
230,miracema do tocantins,-9.5618,-48.3967,74.61,97,100,1.68,BR,1704401667
231,vega de alatorre,20.0333,-96.6333,68.05,93,94,6.89,MX,1704401667
232,santo antonio,-6.3106,-35.4789,81.45,68,65,12.35,BR,1704401667
233,forde,61.4522,5.8572,28.4,52,0,3.44,NO,1704401668
234,nagqu,31.5,92.0,5.27,57,79,3.56,CN,1704401668
235,ashland,40.8167,-82.2665,28.36,87,42,7.99,US,1704401644
236,ilula,-7.6766,36.0366,63.37,94,100,1.19,TZ,1704401668
237,nizamabad,18.6667,78.1167,68.7,64,87,8.77,IN,1704401669
238,gamba,-2.65,10.0,78.19,83,99,4.56,GA,1704401662
239,sabzevar,36.2126,57.6819,44.31,47,73,2.13,IR,1704401669
240,cam ranh,11.9214,109.1591,73.36,73,20,8.05,VN,1704401669
241,pauini,-7.7136,-66.9764,77.97,95,100,2.77,BR,1704401670
242,port alfred,-33.5906,26.891,66.18,93,29,5.99,ZA,1704401670
243,chehalis,46.662,-122.964,48.43,97,75,8.05,US,1704401670
244,ashburton,-37.8626,145.0794,68.36,88,65,1.01,AU,1704401671
245,oranjemund,-28.55,16.4333,64.22,90,1,2.75,NA,1704401671
246,yanjiang,30.1211,104.6481,52.99,62,100,4.47,CN,1704401580
247,yuzhno-kurilsk,44.0306,145.8556,29.37,63,50,6.44,RU,1704401671
248,east london,-33.0153,27.9116,69.96,80,51,15.86,ZA,1704401672
249,san antonio,29.4241,-98.4936,59.02,74,75,12.66,US,1704401416
250,dhidhdhoo,6.8833,73.1,79.47,83,100,7.43,MV,1704401672
251,galliano,29.4422,-90.2992,60.01,51,0,6.91,US,1704401672
252,san ignacio,17.1561,-89.0714,82.54,69,40,4.61,BZ,1704401672
253,mugia,43.1041,-9.2179,51.91,72,65,17.02,ES,1704401673
254,shamgarh,24.1833,75.6333,54.3,68,0,7.36,IN,1704401673
255,trincomalee,8.5711,81.2335,80.37,78,93,7.67,LK,1704401673
256,vorgashor,67.5833,63.95,-10.43,99,100,6.89,RU,1704401674
257,chonchi,-42.6128,-73.8092,72.12,73,60,6.69,CL,1704401674
258,tongouson,5.0214,120.1328,81.37,80,85,5.06,PH,1704401674
259,oued lill,36.8341,10.0406,54.79,100,20,2.3,TN,1704401674
260,veinticinco de mayo,-35.4323,-60.1727,80.98,58,82,4.0,AR,1704401675
261,owase,34.0667,136.2,41.95,61,0,4.25,JP,1704401675
262,sakiai,54.9547,23.0358,18.75,94,100,8.7,LT,1704401675
263,mogadishu,2.0371,45.3438,79.11,71,9,17.31,SO,1704401675
264,dien bien phu,21.3833,103.0167,57.6,99,11,1.86,VN,1704401676
265,kristiansund,63.1115,7.732,25.45,54,75,5.75,NO,1704401676
266,santa marta de ortigueira,43.6833,-7.85,48.25,75,84,13.18,ES,1704401676
267,bredasdorp,-34.5322,20.0403,66.06,88,98,10.87,ZA,1704401676
268,pustoshka,56.3355,29.369,9.18,84,100,12.59,RU,1704401677
269,kununurra,-15.7667,128.7333,78.78,94,100,3.44,AU,1704401430
270,la'ie,21.6477,-157.9253,80.56,69,100,8.01,US,1704401677
271,gorele,41.0308,39.0031,53.46,74,100,8.5,TR,1704401677
272,kerikeri,-35.2268,173.9474,68.85,69,100,1.86,NZ,1704401678
273,tupelo,34.2576,-88.7034,48.11,63,40,8.05,US,1704401678
274,lobva,59.1854,60.5185,-2.27,97,100,3.96,RU,1704401678
275,tralee,52.2704,-9.7026,43.97,90,86,7.65,IE,1704401679
276,kulhudhuffushi,6.6221,73.07,79.47,83,100,8.88,MV,1704401679
277,salalah,17.0151,54.0924,73.49,68,0,2.3,OM,1704401679
278,khouribga,32.9333,-6.6,56.05,60,98,8.12,MA,1704401403
279,hithadhoo,-0.6,73.0833,82.22,77,93,7.54,MV,1704401680
280,havre,49.5833,0.3333,50.4,76,100,25.32,FR,1704401680
281,prince rupert,54.3161,-130.3201,44.29,79,40,11.5,CA,1704401680
282,srednebelaya,50.6594,128.0106,-6.83,93,99,10.56,RU,1704401681
283,taoudenni,22.6783,-3.9836,69.93,15,2,8.99,ML,1704401681
284,posto fiscal rolim de moura,-13.0833,-62.2667,78.31,94,100,5.46,BR,1704401681
285,naha,26.2125,127.6811,61.48,63,75,9.22,JP,1704401666
286,shimoda,34.6667,138.95,51.26,61,74,2.59,JP,1704401682
287,queenstown,-31.8976,26.8753,60.66,94,24,3.22,ZA,1704401682
288,isafjordur,66.0755,-23.124,31.33,96,92,11.63,IS,1704401683
289,susuman,62.7833,148.1667,-44.54,100,98,0.58,RU,1704401683
290,moyobamba,-6.05,-76.9667,83.48,53,87,2.73,PE,1704401428
291,khandyga,62.6667,135.6,-42.45,100,53,2.15,RU,1704401683
292,port augusta,-32.5,137.7667,78.13,57,96,7.92,AU,1704401683
293,isangel,-19.55,169.2667,80.71,83,100,0.0,VU,1704401684
294,gryazovets,58.88,40.2525,-14.82,98,100,5.7,RU,1704401684
295,kayangel,8.0823,134.7173,84.04,78,52,15.35,PW,1704401684
296,bibiani,6.4635,-2.3194,76.91,79,94,1.66,GH,1704401684
297,beira,-19.8436,34.8389,82.49,83,20,9.22,MZ,1704401685
298,kyzylorda,44.8528,65.5092,28.42,86,0,4.47,KZ,1704401685
299,san patricio,28.017,-97.5169,68.86,65,95,12.57,US,1704401685
300,magadan,59.5667,150.8,-15.0,83,1,6.04,RU,1704401685
301,tacna,-18.0056,-70.2483,73.6,57,0,11.5,PE,1704401589
302,la mira,18.035,-102.3266,82.02,52,16,9.28,MX,1704401687
303,campbell river,50.0163,-125.2446,49.53,87,20,6.91,CA,1704401439
304,ust-nera,64.5667,143.2,-45.47,99,77,3.09,RU,1704401687
305,asau,46.4333,26.4,45.52,76,100,17.38,RO,1704401687
306,tomohon,1.3346,124.8392,67.14,92,83,2.21,ID,1704401688
307,redencao,-4.2258,-38.7306,80.98,71,81,6.46,BR,1704401688
308,kropyvnytskyi,48.5132,32.2597,42.46,87,100,6.33,UA,1704401688
309,mutoko,-17.397,32.2268,67.12,77,85,6.89,ZW,1704401689
310,selkirk,50.1436,-96.8845,18.16,83,68,8.99,CA,1704401598
311,severo-yeniseyskiy,60.3725,93.0408,-35.43,100,74,4.0,RU,1704401689
312,huarmey,-10.0681,-78.1522,75.74,77,93,9.51,PE,1704401689
313,es castell,39.8795,4.2854,59.68,100,75,8.05,ES,1704401690
314,dogondoutchi,13.6393,4.0287,74.86,13,2,10.0,NE,1704401690
315,lata,40.1629,-8.3327,51.93,95,42,4.29,PT,1704401690
316,richlands,37.0932,-81.7937,35.98,69,100,3.44,US,1704401690
317,chebba,35.2372,11.115,60.33,53,3,10.78,TN,1704401691
318,caleta de carquin,-11.0925,-77.6267,75.34,77,89,9.89,PE,1704401691
319,kavaratti,10.5669,72.642,80.04,81,100,11.21,IN,1704401691
320,nakonde,-9.3421,32.745,59.77,97,100,0.96,ZM,1704401691
321,palikir - national government center,6.9248,158.1611,79.54,83,75,3.44,FM,1704401692
322,chanute,37.6792,-95.4572,44.28,60,0,8.05,US,1704401692
323,shchyolkino,45.4291,35.8223,47.55,91,100,12.75,UA,1704401692
324,aripuana,-9.1667,-60.6333,78.08,87,100,2.62,BR,1704401692
325,bouafle,6.9904,-5.7442,78.62,61,11,4.38,CI,1704401693
326,nantucket,41.2835,-70.0995,44.02,70,20,9.22,US,1704401402
327,matthew town,20.95,-73.6667,78.46,76,7,2.21,BS,1704401693
328,rikaze,29.25,88.8833,22.91,22,0,1.9,CN,1704401693
329,lexington,37.9887,-84.4777,40.73,53,0,3.44,US,1704401616
330,kavieng,-2.5744,150.7967,82.08,78,97,1.03,PG,1704401694
331,richards bay,-28.783,32.0377,67.24,84,0,2.64,ZA,1704401694
332,raduzhny,62.0961,77.475,-8.21,87,100,11.7,RU,1704401694
333,zabid,14.1951,43.3152,75.45,64,4,5.01,YE,1704401694
334,sydney mines,46.2367,-60.2177,32.0,81,100,6.91,CA,1704401695
335,alice springs,-23.7,133.8833,83.75,32,83,8.05,AU,1704401695
336,waitara,-38.925,174.25,64.49,70,100,7.16,NZ,1704401695
337,uruacu,-14.5247,-49.1408,72.88,95,100,2.26,BR,1704401478
338,port elizabeth,-33.918,25.5701,70.11,89,0,16.11,ZA,1704401696
339,port-gentil,-0.7193,8.7815,80.56,94,20,4.61,GA,1704401696
340,male,4.1748,73.5089,80.55,89,75,5.75,MV,1704401696
341,masterton,-40.9597,175.6575,63.88,65,100,8.37,NZ,1704401696
342,zouerate,22.7187,-12.4521,67.82,18,0,8.32,MR,1704401697
343,ta`u,-14.2336,-169.5144,82.72,77,24,15.64,AS,1704401697
344,tolanaro,-25.0319,46.9987,75.27,88,75,11.5,MG,1704401697
345,salto,-31.3833,-57.9667,78.28,67,90,8.21,UY,1704401664
346,ceerigaabo,10.6162,47.368,58.64,30,45,6.44,SO,1704401697
347,marsabit,2.3284,37.9899,71.83,41,3,10.92,KE,1704401698
348,jianguang,28.1938,115.7836,49.77,61,100,0.51,CN,1704401698
349,yamada,39.4667,141.95,34.81,77,8,5.14,JP,1704401698
350,remire-montjoly,4.9167,-52.2667,82.44,78,100,13.8,GF,1704401698
351,kodiak,57.79,-152.4072,36.91,87,100,10.36,US,1704401699
352,mahur,25.1667,93.1167,48.38,72,0,0.87,IN,1704401699
353,giyani,-23.3025,30.7187,72.91,69,35,6.87,ZA,1704401699
354,eraan,9.0629,117.7016,78.26,90,71,4.14,PH,1704401700
355,princeville,45.7668,-61.2985,30.65,90,100,2.3,CA,1704401700
356,bridgewater,44.3835,-64.5155,35.22,92,100,1.14,CA,1704401700
357,sorong,-0.8833,131.25,78.44,85,100,3.74,ID,1704401700
358,nova sintra,14.8667,-24.7167,70.07,64,0,17.6,CV,1704401701
359,luquillo,18.3725,-65.7166,85.75,84,20,6.91,PR,1704401701
360,mali,12.079,-12.2982,66.22,23,41,1.32,GN,1704401702
361,saipan,15.1355,145.701,83.1,78,20,4.61,MP,1704401702
362,usinsk,65.9939,57.5281,-12.93,100,94,8.99,RU,1704401702
363,sunne,59.8376,13.143,7.12,98,17,5.68,SE,1704401703
364,matoury,4.8483,-52.3317,82.36,78,100,13.8,GF,1704401703
365,kuta,-8.7233,115.1723,78.75,94,75,2.3,ID,1704401703
366,happy valley-goose bay,53.3168,-60.3315,10.71,67,75,0.0,CA,1704401704
367,acapulco de juarez,16.8634,-99.8901,83.82,56,4,8.39,MX,1704401602
368,naryn,41.4287,75.9911,13.89,71,100,7.87,KG,1704401704
369,bubaque,11.2833,-15.8333,78.75,70,34,12.37,GW,1704401705
370,watsa,3.0372,29.5355,66.99,44,20,1.77,CD,1704401705
371,syktyvkar,61.6764,50.8099,-9.67,84,75,4.47,RU,1704401706
372,olbia,40.9214,9.4856,53.65,82,75,11.5,IT,1704401706
373,glace bay,46.1969,-59.957,31.08,82,100,6.91,CA,1704401706
374,anna regina,7.2644,-58.5077,81.66,67,85,7.43,GY,1704401706
375,orange,33.7,-117.7675,65.5,54,75,5.75,US,1704401452
376,luganville,-15.5333,167.1667,80.33,83,100,6.8,VU,1704401707
377,metlili chaamba,32.2667,3.6333,57.11,28,60,7.67,DZ,1704401707
378,ocean shores,46.9737,-124.1563,49.95,87,100,9.22,US,1704401708
379,mstera,56.3789,41.92,-1.46,98,94,3.67,RU,1704401708
380,burutu,5.3509,5.5076,81.59,77,84,8.14,NG,1704401708
381,huyuk,37.9539,31.5964,46.35,86,94,10.94,TR,1704401708
382,mermoz boabab,14.7065,-17.4758,75.76,83,0,4.61,SN,1704401709
383,kallakkurichchi,11.7333,78.9667,73.6,88,100,6.85,IN,1704401709
384,abilene,32.4487,-99.7331,46.62,84,100,19.57,US,1704401509
385,la mesa,32.7678,-117.0231,63.45,53,0,5.99,US,1704401491
386,sumbawanga,-7.9667,31.6167,57.52,95,100,2.42,TZ,1704401710
387,kapa'a,22.0752,-159.319,77.47,80,0,11.5,US,1704401710
388,north bend,43.4065,-124.2243,53.92,94,100,12.66,US,1704401711
389,lompoc,34.6391,-120.4579,64.78,59,0,13.8,US,1704401711
390,haifa,32.8156,34.9892,61.29,89,33,5.12,IL,1704401712
391,xinyuan,37.3,99.0,8.08,38,32,6.22,CN,1704401712
392,jiexiu,37.0244,111.9125,28.18,57,11,3.42,CN,1704401712
393,chak one hundred twenty nine left,30.4333,73.05,50.99,39,19,2.71,PK,1704401713
394,terrace,54.5163,-128.6035,39.11,93,100,14.97,CA,1704401713
395,pahrump,36.2083,-115.9839,54.25,37,1,18.01,US,1704401713
396,saint-pierre,-21.3393,55.4781,79.18,89,75,3.44,RE,1704401714
397,grand falls-windsor,48.9332,-55.6649,30.51,79,100,6.6,CA,1704401714
398,shar,49.5886,81.0453,17.94,79,45,15.73,KZ,1704401714
399,khilok,51.3674,110.4676,4.01,92,93,7.81,RU,1704401715
400,sinabang,2.4803,96.3801,79.81,78,46,1.66,ID,1704401715
401,toyooka,35.5333,134.8333,38.66,86,0,5.3,JP,1704401715
402,suncho corral,-27.9336,-63.4294,99.32,24,21,10.69,AR,1704401715
403,ormara,25.2088,64.6357,71.62,72,51,7.78,PK,1704401716
404,sao miguel,-5.4667,-35.3667,84.97,75,2,11.79,BR,1704401716
405,porto murtinho,-21.6989,-57.8825,102.47,20,15,8.05,BR,1704401716
406,antsiranana,-12.2787,49.2917,80.06,81,57,9.4,MG,1704401717
407,caucete,-31.6518,-68.2811,99.63,20,0,3.31,AR,1704401717
408,hadibu,12.65,54.0333,75.63,61,100,11.74,YE,1704401717
409,agara,42.0376,43.8238,39.92,96,100,2.46,GE,1704401717
410,katsuura,35.1333,140.3,48.85,60,12,3.02,JP,1704401718
411,suva,-18.1416,178.4415,81.88,89,40,3.44,FJ,1704401718
412,bamboo flat,11.7,92.7167,80.69,78,20,10.36,IN,1704401718
413,horsham,51.064,-0.3272,49.89,85,75,9.22,GB,1704401648
414,arsk,56.0915,49.8778,-1.86,100,75,5.46,RU,1704401719
415,sisimiut,66.9395,-53.6735,11.05,68,41,14.85,GL,1704401719
416,igarka,67.4667,86.5833,-12.51,95,100,21.63,RU,1704401720
417,pisco,-13.7,-76.2167,80.65,57,0,18.41,PE,1704401655
418,znamenskoye,57.1281,73.8282,12.36,89,100,13.35,RU,1704401721
419,primero de mayo,-32.2552,-58.4228,80.44,57,78,9.24,AR,1704401721
420,peniche,39.3558,-9.3811,57.56,71,25,20.65,PT,1704401721
421,udachny,66.4167,112.4,-39.69,99,67,2.86,RU,1704401722
422,riberalta,-10.9833,-66.1,84.4,79,75,17.27,BO,1704401722
423,coahuayana de hidalgo,18.7,-103.6583,83.17,52,3,6.58,MX,1704401722
424,ballina,-28.8667,153.5667,74.79,89,78,14.0,AU,1704401722
425,chalford,51.7258,-2.1514,42.08,94,100,14.2,GB,1704401723
426,bengkulu,-3.8004,102.2655,74.93,92,100,4.34,ID,1704401723
427,waingapu,-9.6567,120.2641,80.76,75,75,2.89,ID,1704401723
428,basco,20.4487,121.9702,71.76,71,60,19.53,PH,1704401724
429,leh,34.1667,77.5833,17.78,44,83,2.24,IN,1704401724
430,broome,42.2506,-75.833,28.62,73,75,13.8,US,1704401724
431,kharp,66.8014,65.8081,-7.01,91,73,8.05,RU,1704401724
432,castillos,-34.1667,-53.8333,72.88,63,0,12.84,UY,1704401725
433,sodankyla,67.4167,26.6,-4.02,90,6,9.82,FI,1704401725
434,newman,37.3138,-121.0208,57.04,67,34,7.0,US,1704401725
435,i-n-salah,27.1935,2.4607,59.63,23,23,0.38,DZ,1704401726
436,tofol,5.3248,163.0078,83.98,74,100,8.05,FM,1704401726
437,menongue,-14.6585,17.691,67.17,90,100,7.36,AO,1704401726
438,taghazout,30.5426,-9.7112,61.57,51,0,6.13,MA,1704401726
439,urzhar,47.093,81.6294,20.28,75,29,3.96,KZ,1704401727
440,zhengjiatun,43.5064,123.5064,5.76,90,11,5.48,CN,1704401727
441,mokopane,-24.1944,29.0097,65.62,88,26,6.33,ZA,1704401727
442,vilhena,-12.7406,-60.1458,82.62,69,40,10.36,BR,1704401728
443,tommot,58.9564,126.2925,-4.02,100,100,2.64,RU,1704401728
444,labytnangi,66.6572,66.4183,-14.15,97,82,4.61,RU,1704401729
445,tidjikja,18.5564,-11.4271,72.14,13,15,10.13,MR,1704401729
446,brisas de zicatela,15.8369,-97.0419,83.98,53,57,6.06,MX,1704401729
447,island harbour,50.724,-1.2758,49.93,92,99,11.99,GB,1704401730
448,tayshet,55.9342,98.0044,-29.78,100,26,3.02,RU,1704401730
449,malango,-2.9627,119.9001,68.31,97,100,2.08,ID,1704401730
450,itaituba,-4.2761,-55.9836,89.76,66,40,0.0,BR,1704401714
451,yulinshi,38.2906,109.7494,15.15,81,2,1.36,CN,1704401731
452,priozersk,61.0393,30.1291,6.82,93,100,6.26,RU,1704401731
453,saldanha,-33.0117,17.9442,66.25,83,20,9.06,ZA,1704401731
454,rumbek,6.802,29.6912,79.92,19,0,4.36,SS,1704401732
455,shingu,33.7333,135.9833,39.74,71,0,5.57,JP,1704401732
456,novo aripuana,-5.1206,-60.3797,83.73,70,100,0.98,BR,1704401732
457,berdigestyakh,62.0989,126.6992,-22.05,99,100,1.61,RU,1704401733
458,inkerman,44.6,33.6,51.75,74,87,9.24,UA,1704401733
459,nadym,65.5333,72.5167,-11.34,83,100,12.39,RU,1704401733
460,el burgo de osma,41.5862,-3.0652,41.61,92,96,1.39,ES,1704401734
461,gadzhiyevo,69.2551,33.3362,-3.14,83,10,19.64,RU,1704401734
462,ciudad insurgentes,25.2625,-111.7753,72.91,28,0,8.39,MX,1704401734
463,atar,20.5169,-13.0499,70.29,12,0,6.96,MR,1704401735
464,lubao,14.9167,120.55,77.07,88,94,5.57,PH,1704401735
465,solnechnyy,50.7214,136.6319,-7.98,94,100,3.96,RU,1704401735
466,cananeia,-25.0147,-47.9267,77.45,78,43,7.54,BR,1704401736
467,armacao de buzios,-22.7469,-41.8817,80.65,90,100,3.22,BR,1704401616
468,embrun,44.5639,6.4953,37.26,68,82,3.49,FR,1704401736
469,sanctuary point,-35.1114,150.629,70.75,87,100,6.24,AU,1704401737
470,red hill,33.9996,-79.2581,54.91,54,3,11.61,US,1704401737
471,atlantis,-33.5667,18.4834,74.66,83,0,4.97,ZA,1704401737
472,mariinsk,56.2139,87.7472,-26.25,100,40,3.76,RU,1704401737
473,muynoq,43.7683,59.0214,38.05,76,100,3.47,UZ,1704401738
474,lewistown,40.5992,-77.5714,36.88,72,40,12.66,US,1704401568
475,sao raimundo das mangabeiras,-7.0219,-45.4811,79.97,79,95,4.18,BR,1704401738
476,kijang,35.2442,129.2139,26.33,68,0,9.78,KR,1704401738
477,conception bay south,47.4999,-52.9981,31.44,92,100,16.98,CA,1704401739
478,lugoba,-6.45,38.3333,73.49,96,99,1.05,TZ,1704401739
479,cidreira,-30.1811,-50.2056,72.12,85,12,13.56,BR,1704401740
480,tlahualilo de zaragoza,26.1167,-103.45,72.19,12,0,2.62,MX,1704401740
481,la toma,-33.0526,-65.6238,89.49,24,45,12.88,AR,1704401740
482,robbah,33.2797,6.9098,53.24,34,1,9.93,DZ,1704401740
483,robore,-18.3333,-59.75,89.69,66,75,0.0,BO,1704401741
484,mao,39.8885,4.2658,59.56,100,75,8.05,ES,1704401741
485,muana,-1.5283,-49.2167,79.54,87,91,6.96,BR,1704401741
486,valle de la pascua,9.2155,-66.0073,94.32,23,86,9.57,VE,1704401741
487,novoshcherbinovskaya,46.4767,38.6476,45.82,96,97,11.5,RU,1704401742
488,rabo de peixe,37.8,-25.5833,58.51,94,75,8.05,PT,1704401742
489,hawera,-39.5917,174.2833,63.23,65,100,8.55,NZ,1704401742
490,alzamay,55.5562,98.6644,-27.09,100,18,2.19,RU,1704401742
491,changyon,38.2508,125.0961,34.79,86,18,6.22,KP,1704401743
492,mhlume,-26.0333,31.85,67.84,93,53,2.62,SZ,1704401743
493,kirakira,-10.4544,161.9205,79.88,84,100,3.22,SB,1704401743
494,lencois paulista,-22.5986,-48.8003,91.89,40,61,4.18,BR,1704401744
495,ciudad lazaro cardenas,17.9583,-102.2,81.36,55,21,10.13,MX,1704401663
496,fremantle,-32.05,115.7667,62.94,66,0,16.11,AU,1704401703
497,praia da vitoria,38.7333,-27.0667,61.05,88,75,15.7,PT,1704401744
498,itanhem,-17.1664,-40.33,79.2,85,100,3.06,BR,1704401744
499,zelenokumsk,44.4069,43.8806,42.06,78,60,7.36,RU,1704401745
500,hamilton,39.1834,-84.5333,39.24,57,40,7.0,US,1704401745
501,illizi,26.4833,8.4667,58.8,22,47,3.38,DZ,1704401745
502,inirida,3.8653,-67.9239,94.03,45,99,1.52,CO,1704401746
503,porto novo,6.4965,2.6036,84.02,75,87,9.28,BJ,1704401564
504,pandan,14.0453,124.1694,78.69,87,94,17.54,PH,1704401746
505,el naranjito,7.1003,-73.4898,93.58,55,40,3.29,CO,1704401746
506,nicoya,10.1483,-85.452,89.92,47,61,6.42,CR,1704401747
507,porbandar,21.6422,69.6093,67.06,41,0,9.01,IN,1704401747
508,clodomira,-27.5744,-64.1311,98.35,25,0,3.91,AR,1704401747
509,yangshuo,24.7808,110.4897,55.33,69,100,1.45,CN,1704401747
510,kathu,7.9178,98.3332,78.62,85,99,12.46,TH,1704401747
511,cholpon-ata,42.6494,77.0823,33.85,64,100,4.23,KG,1704401748
512,peace river,56.2501,-117.286,7.11,85,100,9.22,CA,1704401702
513,kongolo,-5.3833,27.0,68.02,97,100,1.03,CD,1704401748
514,cole harbour,44.6724,-63.4751,33.96,89,100,2.77,CA,1704401748
515,robertsport,6.7533,-11.3686,81.68,81,99,8.46,LR,1704401749
516,hakui,36.8833,136.7833,39.69,70,7,9.22,JP,1704401749
517,cox's bazar,21.4532,91.9798,58.44,80,0,9.08,BD,1704401749
518,adrar,20.5022,-10.0711,67.26,14,0,7.94,MR,1704401750
519,oriximina,-1.7656,-55.8661,86.27,59,90,2.46,BR,1704401750
520,aljezur,37.3191,-8.8033,57.94,86,16,15.86,PT,1704401750
521,aykhal,66.0,111.5,-34.26,100,43,2.86,RU,1704401751
522,puerto deseado,-47.7503,-65.8938,80.73,24,86,21.79,AR,1704401751
523,al hazm,16.1641,44.7769,66.0,38,3,2.35,YE,1704401751
524,kikwit,-5.041,18.8162,72.55,94,100,0.63,CD,1704401751
525,nuuk,64.1835,-51.7216,20.01,86,100,28.77,GL,1704401752
526,shenjiamen,29.9576,122.298,51.76,80,62,13.22,CN,1704401752
527,coquimbo,-29.9533,-71.3436,69.53,64,20,13.8,CL,1704401596
528,fabens,31.5023,-106.1586,48.58,30,100,25.9,US,1704401453
529,tobelo,1.7284,128.0095,81.07,81,100,2.93,ID,1704401753
530,asino,56.9979,86.1452,-22.81,99,80,6.85,RU,1704401753
531,natal,-5.795,-35.2094,84.85,74,40,12.66,BR,1704401568
532,al kharijah,25.4514,30.5464,56.71,39,1,8.72,EG,1704401753
533,clear lake,43.138,-93.3794,28.27,73,100,3.44,US,1704401753
534,saint-francois,46.4154,3.9054,43.65,88,0,3.44,FR,1704401754
535,coka,45.9425,20.1433,41.95,81,38,5.35,RS,1704401754
536,hobyo,5.3505,48.5268,77.9,70,99,17.16,SO,1704401754
537,san javier,37.8063,-0.8374,59.32,77,0,4.61,ES,1704401755
538,namsos,64.4662,11.4957,19.45,62,100,14.97,NO,1704401755
539,arkhangel'sk,64.5401,40.5433,-3.89,84,75,4.47,RU,1704401755
540,jaca,42.569,-0.5499,43.12,91,100,3.87,ES,1704401756
541,chichli,22.8333,78.8167,61.54,82,17,5.12,IN,1704401756
542,alta sierra,35.7291,-118.5495,35.78,63,74,4.27,US,1704401757
543,cerro largo,-28.1486,-54.7381,82.06,64,22,7.34,BR,1704401757
544,tolbazy,54.0241,55.8825,-4.13,96,100,8.25,RU,1704401757
545,leningradskaya,46.3214,39.3877,41.92,93,99,11.43,RU,1704401757
546,hammerfest,70.6634,23.6821,30.65,64,20,23.02,NO,1704401758
547,tarawa,1.419,172.984,78.89,89,100,13.8,KI,1704401758
548,mascote,-15.5631,-39.3025,81.23,81,99,6.58,BR,1704401758
549,villa regina,-39.1,-67.0667,93.97,15,92,1.99,AR,1704401759
550,hillsdale,41.0026,-74.0404,43.79,51,100,14.97,US,1704401759
551,hotan,37.0997,79.9269,25.16,51,2,0.49,CN,1704401759
552,padang,-0.9492,100.3543,78.85,85,100,2.75,ID,1704401760
553,kargasok,59.0556,80.8572,-13.04,91,100,11.01,RU,1704401760
554,namie,37.4833,141.0,34.99,79,0,5.48,JP,1704401760
555,shahritus,37.2637,68.1385,50.22,59,100,2.21,TJ,1704401760
556,zhangjiakou,40.81,114.8794,11.79,86,8,3.2,CN,1704401761
557,shache,38.4167,77.2406,24.06,51,89,0.83,CN,1704401761
558,show low,34.2542,-110.0298,33.08,83,100,11.5,US,1704401761
559,puerto baquerizo moreno,-0.9,-89.6,85.19,79,40,14.97,EC,1704401761
560,nizhniy ingash,56.2,96.53,-31.47,100,19,2.86,RU,1704401762
561,mogocha,53.7333,119.7667,-19.79,100,60,2.19,RU,1704401762
562,mudon,16.2578,97.7164,69.93,76,7,3.53,MM,1704401762
563,bolkhov,53.4433,36.0044,-2.78,93,98,8.12,RU,1704401763
564,al-hamdaniya,36.2715,43.3737,52.34,74,100,6.17,IQ,1704401763
565,chibougamau,49.9168,-74.3659,2.82,85,100,9.22,CA,1704401763
566,bikenibeu village,1.3673,173.1241,78.76,89,100,13.8,KI,1704401763
567,cloquet,46.7216,-92.4594,20.59,67,100,8.05,US,1704401764
